<?xml version="1.0" encoding="UTF-8"?>
<kml xmlns="http://earth.google.com/kml/2.0">
<Document>
    <Placemark>
      <name>AB08</name>
      <description>AB08</description>
      <visibility>1</visibility>
      <Point>
        <extrude>0</extrude>
        <altitudeMode>clampToGround</altitudeMode>
        <coordinates>-166.200857128611090,  60.384831475833330,0</coordinates>
      </Point>
    </Placemark>
    <Placemark>
      <name>ABVI</name>
      <description>ABVI</description>
      <visibility>1</visibility>
      <Point>
        <extrude>0</extrude>
        <altitudeMode>clampToGround</altitudeMode>
        <coordinates> -64.332485090277771,  18.729684068611110,0</coordinates>
      </Point>
    </Placemark>
    <Placemark>
      <name>AC44</name>
      <description>AC44</description>
      <visibility>1</visibility>
      <Point>
        <extrude>0</extrude>
        <altitudeMode>clampToGround</altitudeMode>
        <coordinates>-149.567125992777760,  61.242172459722227,0</coordinates>
      </Point>
    </Placemark>
    <Placemark>
      <name>AC78</name>
      <description>AC78</description>
      <visibility>1</visibility>
      <Point>
        <extrude>0</extrude>
        <altitudeMode>clampToGround</altitudeMode>
        <coordinates>-142.027938377222230,  63.113490982500004,0</coordinates>
      </Point>
    </Placemark>
    <Placemark>
      <name>ACHO</name>
      <description>ACHO</description>
      <visibility>1</visibility>
      <Point>
        <extrude>0</extrude>
        <altitudeMode>clampToGround</altitudeMode>
        <coordinates> -80.173106565555557,   7.414730869722223,0</coordinates>
      </Point>
    </Placemark>
    <Placemark>
      <name>ALG2</name>
      <description>ALG2</description>
      <visibility>1</visibility>
      <Point>
        <extrude>0</extrude>
        <altitudeMode>clampToGround</altitudeMode>
        <coordinates> -78.070874351944440,  45.955249884444449,0</coordinates>
      </Point>
    </Placemark>
    <Placemark>
      <name>ALG3</name>
      <description>ALG3</description>
      <visibility>1</visibility>
      <Point>
        <extrude>0</extrude>
        <altitudeMode>clampToGround</altitudeMode>
        <coordinates> -78.072732813333332,  45.954806558333338,0</coordinates>
      </Point>
    </Placemark>
    <Placemark>
      <name>ALLG</name>
      <description>ALLG</description>
      <visibility>1</visibility>
      <Point>
        <extrude>0</extrude>
        <altitudeMode>clampToGround</altitudeMode>
        <coordinates> -78.730701066388889,  39.653866411388890,0</coordinates>
      </Point>
    </Placemark>
    <Placemark>
      <name>AMU2</name>
      <description>AMU2</description>
      <visibility>1</visibility>
      <Point>
        <extrude>0</extrude>
        <altitudeMode>clampToGround</altitudeMode>
        <coordinates> -95.463962972499999, -89.998721220833332,0</coordinates>
      </Point>
    </Placemark>
    <Placemark>
      <name>ATLI</name>
      <description>ATLI</description>
      <visibility>1</visibility>
      <Point>
        <extrude>0</extrude>
        <altitudeMode>clampToGround</altitudeMode>
        <coordinates>-133.714472293888890,  59.589481662499999,0</coordinates>
      </Point>
    </Placemark>
    <Placemark>
      <name>BACK</name>
      <description>BACK</description>
      <visibility>1</visibility>
      <Point>
        <extrude>0</extrude>
        <altitudeMode>clampToGround</altitudeMode>
        <coordinates>-102.478185699166670, -74.430441405555555,0</coordinates>
      </Point>
    </Placemark>
    <Placemark>
      <name>BADG</name>
      <description>BADG</description>
      <visibility>1</visibility>
      <Point>
        <extrude>0</extrude>
        <altitudeMode>clampToGround</altitudeMode>
        <coordinates> 102.234986152500000,  51.769704888055557,0</coordinates>
      </Point>
    </Placemark>
    <Placemark>
      <name>BENN</name>
      <description>BENN</description>
      <visibility>1</visibility>
      <Point>
        <extrude>0</extrude>
        <altitudeMode>clampToGround</altitudeMode>
        <coordinates>-116.459806693055550, -84.786458072777776,0</coordinates>
      </Point>
    </Placemark>
    <Placemark>
      <name>BERP</name>
      <description>BERP</description>
      <visibility>1</visibility>
      <Point>
        <extrude>0</extrude>
        <altitudeMode>clampToGround</altitudeMode>
        <coordinates>-111.884583796666670, -74.545935849722227,0</coordinates>
      </Point>
    </Placemark>
    <Placemark>
      <name>BILB</name>
      <description>BILB</description>
      <visibility>1</visibility>
      <Point>
        <extrude>0</extrude>
        <altitudeMode>clampToGround</altitudeMode>
        <coordinates> 166.453382977499980,  68.065312804999991,0</coordinates>
      </Point>
    </Placemark>
    <Placemark>
      <name>BLUF</name>
      <description>BLUF</description>
      <visibility>1</visibility>
      <Point>
        <extrude>0</extrude>
        <altitudeMode>clampToGround</altitudeMode>
        <coordinates> 168.292082231944450, -46.585060921944446,0</coordinates>
      </Point>
    </Placemark>
    <Placemark>
      <name>BYSP</name>
      <description>BYSP</description>
      <visibility>1</visibility>
      <Point>
        <extrude>0</extrude>
        <altitudeMode>clampToGround</altitudeMode>
        <coordinates> -66.161199085277786,  18.407836935555554,0</coordinates>
      </Point>
    </Placemark>
    <Placemark>
      <name>CABA</name>
      <description>CABA</description>
      <visibility>1</visibility>
      <Point>
        <extrude>0</extrude>
        <altitudeMode>clampToGround</altitudeMode>
        <coordinates> -85.343532164999999,  10.237875601944443,0</coordinates>
      </Point>
    </Placemark>
    <Placemark>
      <name>CAKO</name>
      <description>CAKO</description>
      <visibility>1</visibility>
      <Point>
        <extrude>0</extrude>
        <altitudeMode>clampToGround</altitudeMode>
        <coordinates>  16.439078291944444,  46.387102640000002,0</coordinates>
      </Point>
    </Placemark>
    <Placemark>
      <name>CCJ2</name>
      <description>CCJ2</description>
      <visibility>1</visibility>
      <Point>
        <extrude>0</extrude>
        <altitudeMode>clampToGround</altitudeMode>
        <coordinates> 142.195027292777780,  27.067532106666665,0</coordinates>
      </Point>
    </Placemark>
    <Placemark>
      <name>CHES</name>
      <description>CHES</description>
      <visibility>1</visibility>
      <Point>
        <extrude>0</extrude>
        <altitudeMode>clampToGround</altitudeMode>
        <coordinates> -75.600324887499994,  39.951653172777782,0</coordinates>
      </Point>
    </Placemark>
    <Placemark>
      <name>CN15</name>
      <description>CN15</description>
      <visibility>1</visibility>
      <Point>
        <extrude>0</extrude>
        <altitudeMode>clampToGround</altitudeMode>
        <coordinates> -78.693083648055563,  26.556655800000001,0</coordinates>
      </Point>
    </Placemark>
    <Placemark>
      <name>CN33</name>
      <description>CN33</description>
      <visibility>1</visibility>
      <Point>
        <extrude>0</extrude>
        <altitudeMode>clampToGround</altitudeMode>
        <coordinates> -80.326667773333327,   8.487239681111110,0</coordinates>
      </Point>
    </Placemark>
    <Placemark>
      <name>CN40</name>
      <description>CN40</description>
      <visibility>1</visibility>
      <Point>
        <extrude>0</extrude>
        <altitudeMode>clampToGround</altitudeMode>
        <coordinates> -68.958014523611112,  12.180043647500000,0</coordinates>
      </Point>
    </Placemark>
    <Placemark>
      <name>DEFI</name>
      <description>DEFI</description>
      <visibility>1</visibility>
      <Point>
        <extrude>0</extrude>
        <altitudeMode>clampToGround</altitudeMode>
        <coordinates> -84.413576413055566,  41.277028892222219,0</coordinates>
      </Point>
    </Placemark>
    <Placemark>
      <name>EPZA</name>
      <description>EPZA</description>
      <visibility>1</visibility>
      <Point>
        <extrude>0</extrude>
        <altitudeMode>clampToGround</altitudeMode>
        <coordinates> -85.568062900833326,  10.140940883333332,0</coordinates>
      </Point>
    </Placemark>
    <Placemark>
      <name>FLRS</name>
      <description>FLRS</description>
      <visibility>1</visibility>
      <Point>
        <extrude>0</extrude>
        <altitudeMode>clampToGround</altitudeMode>
        <coordinates> -31.126388809722222,  39.453835795277783,0</coordinates>
      </Point>
    </Placemark>
    <Placemark>
      <name>FUNC</name>
      <description>FUNC</description>
      <visibility>1</visibility>
      <Point>
        <extrude>0</extrude>
        <altitudeMode>clampToGround</altitudeMode>
        <coordinates> -16.907614773055553,  32.647948997222223,0</coordinates>
      </Point>
    </Placemark>
    <Placemark>
      <name>G102</name>
      <description>G102</description>
      <visibility>1</visibility>
      <Point>
        <extrude>0</extrude>
        <altitudeMode>clampToGround</altitudeMode>
        <coordinates> 139.489195946111100,  42.078785191388896,0</coordinates>
      </Point>
    </Placemark>
    <Placemark>
      <name>G103</name>
      <description>G103</description>
      <visibility>1</visibility>
      <Point>
        <extrude>0</extrude>
        <altitudeMode>clampToGround</altitudeMode>
        <coordinates> 140.859211362499990,  40.897491388611108,0</coordinates>
      </Point>
    </Placemark>
    <Placemark>
      <name>G105</name>
      <description>G105</description>
      <visibility>1</visibility>
      <Point>
        <extrude>0</extrude>
        <altitudeMode>clampToGround</altitudeMode>
        <coordinates> 139.545977549166680,  38.563336006111108,0</coordinates>
      </Point>
    </Placemark>
    <Placemark>
      <name>G107</name>
      <description>G107</description>
      <visibility>1</visibility>
      <Point>
        <extrude>0</extrude>
        <altitudeMode>clampToGround</altitudeMode>
        <coordinates> 140.249455732222200,  35.129382870000001,0</coordinates>
      </Point>
    </Placemark>
    <Placemark>
      <name>G108</name>
      <description>G108</description>
      <visibility>1</visibility>
      <Point>
        <extrude>0</extrude>
        <altitudeMode>clampToGround</altitudeMode>
        <coordinates> 139.615534572500000,  35.160154315277779,0</coordinates>
      </Point>
    </Placemark>
    <Placemark>
      <name>G109</name>
      <description>G109</description>
      <visibility>1</visibility>
      <Point>
        <extrude>0</extrude>
        <altitudeMode>clampToGround</altitudeMode>
        <coordinates> 138.281262440833360,  37.814757077499998,0</coordinates>
      </Point>
    </Placemark>
    <Placemark>
      <name>G110</name>
      <description>G110</description>
      <visibility>1</visibility>
      <Point>
        <extrude>0</extrude>
        <altitudeMode>clampToGround</altitudeMode>
        <coordinates> 138.508522989999990,  37.356544839722226,0</coordinates>
      </Point>
    </Placemark>
    <Placemark>
      <name>G111</name>
      <description>G111</description>
      <visibility>1</visibility>
      <Point>
        <extrude>0</extrude>
        <altitudeMode>clampToGround</altitudeMode>
        <coordinates> 136.900329308055570,  37.405728481944443,0</coordinates>
      </Point>
    </Placemark>
    <Placemark>
      <name>G112</name>
      <description>G112</description>
      <visibility>1</visibility>
      <Point>
        <extrude>0</extrude>
        <altitudeMode>clampToGround</altitudeMode>
        <coordinates> 136.148862223333340,  36.254573764444444,0</coordinates>
      </Point>
    </Placemark>
    <Placemark>
      <name>G113</name>
      <description>G113</description>
      <visibility>1</visibility>
      <Point>
        <extrude>0</extrude>
        <altitudeMode>clampToGround</altitudeMode>
        <coordinates> 139.132959725000010,  34.895485087777779,0</coordinates>
      </Point>
    </Placemark>
    <Placemark>
      <name>G114</name>
      <description>G114</description>
      <visibility>1</visibility>
      <Point>
        <extrude>0</extrude>
        <altitudeMode>clampToGround</altitudeMode>
        <coordinates> 138.764202297222230,  34.806898444444442,0</coordinates>
      </Point>
    </Placemark>
    <Placemark>
      <name>G115</name>
      <description>G115</description>
      <visibility>1</visibility>
      <Point>
        <extrude>0</extrude>
        <altitudeMode>clampToGround</altitudeMode>
        <coordinates> 138.327414729166660,  34.870670016111113,0</coordinates>
      </Point>
    </Placemark>
    <Placemark>
      <name>G116</name>
      <description>G116</description>
      <visibility>1</visibility>
      <Point>
        <extrude>0</extrude>
        <altitudeMode>clampToGround</altitudeMode>
        <coordinates> 136.823843816111090,  34.903965557222222,0</coordinates>
      </Point>
    </Placemark>
    <Placemark>
      <name>G117</name>
      <description>G117</description>
      <visibility>1</visibility>
      <Point>
        <extrude>0</extrude>
        <altitudeMode>clampToGround</altitudeMode>
        <coordinates> 135.191538212222210,  34.144145500277780,0</coordinates>
      </Point>
    </Placemark>
    <Placemark>
      <name>G118</name>
      <description>G118</description>
      <visibility>1</visibility>
      <Point>
        <extrude>0</extrude>
        <altitudeMode>clampToGround</altitudeMode>
        <coordinates> 134.315934287222230,  35.593686030555560,0</coordinates>
      </Point>
    </Placemark>
    <Placemark>
      <name>G119</name>
      <description>G119</description>
      <visibility>1</visibility>
      <Point>
        <extrude>0</extrude>
        <altitudeMode>clampToGround</altitudeMode>
        <coordinates> 131.604648056666660,  34.627587915555559,0</coordinates>
      </Point>
    </Placemark>
    <Placemark>
      <name>G120</name>
      <description>G120</description>
      <visibility>1</visibility>
      <Point>
        <extrude>0</extrude>
        <altitudeMode>clampToGround</altitudeMode>
        <coordinates> 133.243502157499990,  33.333499835833337,0</coordinates>
      </Point>
    </Placemark>
    <Placemark>
      <name>G121</name>
      <description>G121</description>
      <visibility>1</visibility>
      <Point>
        <extrude>0</extrude>
        <altitudeMode>clampToGround</altitudeMode>
        <coordinates> 129.849294243888890,  33.473079638333338,0</coordinates>
      </Point>
    </Placemark>
    <Placemark>
      <name>G122</name>
      <description>G122</description>
      <visibility>1</visibility>
      <Point>
        <extrude>0</extrude>
        <altitudeMode>clampToGround</altitudeMode>
        <coordinates> 131.669601465555560,  32.428621833888883,0</coordinates>
      </Point>
    </Placemark>
    <Placemark>
      <name>G201</name>
      <description>G201</description>
      <visibility>1</visibility>
      <Point>
        <extrude>0</extrude>
        <altitudeMode>clampToGround</altitudeMode>
        <coordinates> 141.685333384444450,  45.407819055833329,0</coordinates>
      </Point>
    </Placemark>
    <Placemark>
      <name>G202</name>
      <description>G202</description>
      <visibility>1</visibility>
      <Point>
        <extrude>0</extrude>
        <altitudeMode>clampToGround</altitudeMode>
        <coordinates> 144.285792556111120,  44.019411123055555,0</coordinates>
      </Point>
    </Placemark>
    <Placemark>
      <name>G203</name>
      <description>G203</description>
      <visibility>1</visibility>
      <Point>
        <extrude>0</extrude>
        <altitudeMode>clampToGround</altitudeMode>
        <coordinates> 144.371399097500020,  42.975569673055560,0</coordinates>
      </Point>
    </Placemark>
    <Placemark>
      <name>G204</name>
      <description>G204</description>
      <visibility>1</visibility>
      <Point>
        <extrude>0</extrude>
        <altitudeMode>clampToGround</altitudeMode>
        <coordinates> 140.724536173055550,  41.781655929444440,0</coordinates>
      </Point>
    </Placemark>
    <Placemark>
      <name>G206</name>
      <description>G206</description>
      <visibility>1</visibility>
      <Point>
        <extrude>0</extrude>
        <altitudeMode>clampToGround</altitudeMode>
        <coordinates> 139.824919730000000,  34.918791691388890,0</coordinates>
      </Point>
    </Placemark>
    <Placemark>
      <name>G207</name>
      <description>G207</description>
      <visibility>1</visibility>
      <Point>
        <extrude>0</extrude>
        <altitudeMode>clampToGround</altitudeMode>
        <coordinates> 137.224578779722240,  36.762173877777776,0</coordinates>
      </Point>
    </Placemark>
    <Placemark>
      <name>G208</name>
      <description>G208</description>
      <visibility>1</visibility>
      <Point>
        <extrude>0</extrude>
        <altitudeMode>clampToGround</altitudeMode>
        <coordinates> 135.773191177500020,  33.475947162777778,0</coordinates>
      </Point>
    </Placemark>
    <Placemark>
      <name>G209</name>
      <description>G209</description>
      <visibility>1</visibility>
      <Point>
        <extrude>0</extrude>
        <altitudeMode>clampToGround</altitudeMode>
        <coordinates> 132.066215120000010,  34.897311851666664,0</coordinates>
      </Point>
    </Placemark>
    <Placemark>
      <name>G210</name>
      <description>G210</description>
      <visibility>1</visibility>
      <Point>
        <extrude>0</extrude>
        <altitudeMode>clampToGround</altitudeMode>
        <coordinates> 129.866199593888890,  32.735117485277776,0</coordinates>
      </Point>
    </Placemark>
    <Placemark>
      <name>G211</name>
      <description>G211</description>
      <visibility>1</visibility>
      <Point>
        <extrude>0</extrude>
        <altitudeMode>clampToGround</altitudeMode>
        <coordinates> 131.409305193055560,  31.576968046111112,0</coordinates>
      </Point>
    </Placemark>
    <Placemark>
      <name>HAMT</name>
      <description>HAMT</description>
      <visibility>1</visibility>
      <Point>
        <extrude>0</extrude>
        <altitudeMode>clampToGround</altitudeMode>
        <coordinates> 175.109198594999980, -37.806751019166661,0</coordinates>
      </Point>
    </Placemark>
    <Placemark>
      <name>HIKB</name>
      <description>HIKB</description>
      <visibility>1</visibility>
      <Point>
        <extrude>0</extrude>
        <altitudeMode>clampToGround</altitudeMode>
        <coordinates> 178.303353342222240, -37.561039163888886,0</coordinates>
      </Point>
    </Placemark>
    <Placemark>
      <name>HLOU</name>
      <description>HLOU</description>
      <visibility>1</visibility>
      <Point>
        <extrude>0</extrude>
        <altitudeMode>clampToGround</altitudeMode>
        <coordinates> 165.627324591388880, -21.277046950555555,0</coordinates>
      </Point>
    </Placemark>
    <Placemark>
      <name>HRMN</name>
      <description>HRMN</description>
      <visibility>1</visibility>
      <Point>
        <extrude>0</extrude>
        <altitudeMode>clampToGround</altitudeMode>
        <coordinates>  35.785449775833328,  33.308310225555552,0</coordinates>
      </Point>
    </Placemark>
    <Placemark>
      <name>ISBA</name>
      <description>ISBA</description>
      <visibility>1</visibility>
      <Point>
        <extrude>0</extrude>
        <altitudeMode>clampToGround</altitudeMode>
        <coordinates>  44.438403805555552,  33.341416041666669,0</coordinates>
      </Point>
    </Placemark>
    <Placemark>
      <name>KAIK</name>
      <description>KAIK</description>
      <visibility>1</visibility>
      <Point>
        <extrude>0</extrude>
        <altitudeMode>clampToGround</altitudeMode>
        <coordinates> 173.533654676388890, -42.425463450277775,0</coordinates>
      </Point>
    </Placemark>
    <Placemark>
      <name>KAPT</name>
      <description>KAPT</description>
      <visibility>1</visibility>
      <Point>
        <extrude>0</extrude>
        <altitudeMode>clampToGround</altitudeMode>
        <coordinates> 174.909762237222220, -40.860897543611109,0</coordinates>
      </Point>
    </Placemark>
    <Placemark>
      <name>KORO</name>
      <description>KORO</description>
      <visibility>1</visibility>
      <Point>
        <extrude>0</extrude>
        <altitudeMode>clampToGround</altitudeMode>
        <coordinates> 175.424053791666670, -40.409330335833332,0</coordinates>
      </Point>
    </Placemark>
    <Placemark>
      <name>LCAP</name>
      <description>LCAP</description>
      <visibility>1</visibility>
      <Point>
        <extrude>0</extrude>
        <altitudeMode>clampToGround</altitudeMode>
        <coordinates> 165.375477314444450, -21.480343793611109,0</coordinates>
      </Point>
    </Placemark>
    <Placemark>
      <name>LCK2</name>
      <description>LCK2</description>
      <visibility>1</visibility>
      <Point>
        <extrude>0</extrude>
        <altitudeMode>clampToGround</altitudeMode>
        <coordinates>  80.955970466388891,  26.912559026111111,0</coordinates>
      </Point>
    </Placemark>
    <Placemark>
      <name>LCKI</name>
      <description>LCKI</description>
      <visibility>1</visibility>
      <Point>
        <extrude>0</extrude>
        <altitudeMode>clampToGround</altitudeMode>
        <coordinates>  80.955892472499997,  26.912438966111111,0</coordinates>
      </Point>
    </Placemark>
    <Placemark>
      <name>LEXA</name>
      <description>LEXA</description>
      <visibility>1</visibility>
      <Point>
        <extrude>0</extrude>
        <altitudeMode>clampToGround</altitudeMode>
        <coordinates> 169.308244906111130, -45.231013803611113,0</coordinates>
      </Point>
    </Placemark>
    <Placemark>
      <name>LKTA</name>
      <description>LKTA</description>
      <visibility>1</visibility>
      <Point>
        <extrude>0</extrude>
        <altitudeMode>clampToGround</altitudeMode>
        <coordinates> 172.266329911388880, -42.783367702500001,0</coordinates>
      </Point>
    </Placemark>
    <Placemark>
      <name>LPIL</name>
      <description>LPIL</description>
      <visibility>1</visibility>
      <Point>
        <extrude>0</extrude>
        <altitudeMode>clampToGround</altitudeMode>
        <coordinates> 167.263782507777790, -20.917984368611112,0</coordinates>
      </Point>
    </Placemark>
    <Placemark>
      <name>LPLY</name>
      <description>LPLY</description>
      <visibility>1</visibility>
      <Point>
        <extrude>0</extrude>
        <altitudeMode>clampToGround</altitudeMode>
        <coordinates> -90.299466972222220, -73.111115459166655,0</coordinates>
      </Point>
    </Placemark>
    <Placemark>
      <name>LPOC</name>
      <description>LPOC</description>
      <visibility>1</visibility>
      <Point>
        <extrude>0</extrude>
        <altitudeMode>clampToGround</altitudeMode>
        <coordinates> -70.008558154444444,  47.341393923611115,0</coordinates>
      </Point>
    </Placemark>
    <Placemark>
      <name>MAHO</name>
      <description>MAHO</description>
      <visibility>1</visibility>
      <Point>
        <extrude>0</extrude>
        <altitudeMode>clampToGround</altitudeMode>
        <coordinates> 174.854087737222220, -38.513004821388890,0</coordinates>
      </Point>
    </Placemark>
    <Placemark>
      <name>MATW</name>
      <description>MATW</description>
      <visibility>1</visibility>
      <Point>
        <extrude>0</extrude>
        <altitudeMode>clampToGround</altitudeMode>
        <coordinates> 177.526203788611130, -38.333844559166671,0</coordinates>
      </Point>
    </Placemark>
    <Placemark>
      <name>MAUA</name>
      <description>MAUA</description>
      <visibility>1</visibility>
      <Point>
        <extrude>0</extrude>
        <altitudeMode>clampToGround</altitudeMode>
        <coordinates>  23.528397629722221, -19.902241666111109,0</coordinates>
      </Point>
    </Placemark>
    <Placemark>
      <name>MAVL</name>
      <description>MAVL</description>
      <visibility>1</visibility>
      <Point>
        <extrude>0</extrude>
        <altitudeMode>clampToGround</altitudeMode>
        <coordinates> 168.118210220277770, -45.366514487499998,0</coordinates>
      </Point>
    </Placemark>
    <Placemark>
      <name>MCAR</name>
      <description>MCAR</description>
      <visibility>1</visibility>
      <Point>
        <extrude>0</extrude>
        <altitudeMode>clampToGround</altitudeMode>
        <coordinates>-144.303516730833340, -76.322196105833328,0</coordinates>
      </Point>
    </Placemark>
    <Placemark>
      <name>MCHN</name>
      <description>MCHN</description>
      <visibility>1</visibility>
      <Point>
        <extrude>0</extrude>
        <altitudeMode>clampToGround</altitudeMode>
        <coordinates> -84.900853399444443,  47.961335228055560,0</coordinates>
      </Point>
    </Placemark>
    <Placemark>
      <name>MCON</name>
      <description>MCON</description>
      <visibility>1</visibility>
      <Point>
        <extrude>0</extrude>
        <altitudeMode>clampToGround</altitudeMode>
        <coordinates> -81.829207223333327,  39.660850085277779,0</coordinates>
      </Point>
    </Placemark>
    <Placemark>
      <name>MFKG</name>
      <description>MFKG</description>
      <visibility>1</visibility>
      <Point>
        <extrude>0</extrude>
        <altitudeMode>clampToGround</altitudeMode>
        <coordinates>  25.539972351388890, -25.805015307222224,0</coordinates>
      </Point>
    </Placemark>
    <Placemark>
      <name>MONG</name>
      <description>MONG</description>
      <visibility>1</visibility>
      <Point>
        <extrude>0</extrude>
        <altitudeMode>clampToGround</altitudeMode>
        <coordinates>  23.150738663333332, -15.254118419166666,0</coordinates>
      </Point>
    </Placemark>
    <Placemark>
      <name>MTWA</name>
      <description>MTWA</description>
      <visibility>1</visibility>
      <Point>
        <extrude>0</extrude>
        <altitudeMode>clampToGround</altitudeMode>
        <coordinates>  40.200156032222225, -10.268996055000001,0</coordinates>
      </Point>
    </Placemark>
    <Placemark>
      <name>MZUZ</name>
      <description>MZUZ</description>
      <visibility>1</visibility>
      <Point>
        <extrude>0</extrude>
        <altitudeMode>clampToGround</altitudeMode>
        <coordinates>  34.005947656944443, -11.425097448611110,0</coordinates>
      </Point>
    </Placemark>
    <Placemark>
      <name>NLSN</name>
      <description>NLSN</description>
      <visibility>1</visibility>
      <Point>
        <extrude>0</extrude>
        <altitudeMode>clampToGround</altitudeMode>
        <coordinates> 173.433729289722240, -41.183504020833333,0</coordinates>
      </Point>
    </Placemark>
    <Placemark>
      <name>NMEA</name>
      <description>NMEA</description>
      <visibility>1</visibility>
      <Point>
        <extrude>0</extrude>
        <altitudeMode>clampToGround</altitudeMode>
        <coordinates> 166.442516274166680, -22.264786884166668,0</coordinates>
      </Point>
    </Placemark>
    <Placemark>
      <name>P714</name>
      <description>P714</description>
      <visibility>1</visibility>
      <Point>
        <extrude>0</extrude>
        <altitudeMode>clampToGround</altitudeMode>
        <coordinates>-110.744423621944450,  44.895848766666667,0</coordinates>
      </Point>
    </Placemark>
    <Placemark>
      <name>P794</name>
      <description>P794</description>
      <visibility>1</visibility>
      <Point>
        <extrude>0</extrude>
        <altitudeMode>clampToGround</altitudeMode>
        <coordinates>-122.963757232222220,  39.845679738888890,0</coordinates>
      </Point>
    </Placemark>
    <Placemark>
      <name>P795</name>
      <description>P795</description>
      <visibility>1</visibility>
      <Point>
        <extrude>0</extrude>
        <altitudeMode>clampToGround</altitudeMode>
        <coordinates>-116.148126526666670,  34.508123513333331,0</coordinates>
      </Point>
    </Placemark>
    <Placemark>
      <name>P796</name>
      <description>P796</description>
      <visibility>1</visibility>
      <Point>
        <extrude>0</extrude>
        <altitudeMode>clampToGround</altitudeMode>
        <coordinates>-114.759348539166670,  32.497872073055554,0</coordinates>
      </Point>
    </Placemark>
    <Placemark>
      <name>P798</name>
      <description>P798</description>
      <visibility>1</visibility>
      <Point>
        <extrude>0</extrude>
        <altitudeMode>clampToGround</altitudeMode>
        <coordinates>-110.960592142500000,  43.796021524166662,0</coordinates>
      </Point>
    </Placemark>
    <Placemark>
      <name>P800</name>
      <description>P800</description>
      <visibility>1</visibility>
      <Point>
        <extrude>0</extrude>
        <altitudeMode>clampToGround</altitudeMode>
        <coordinates>-118.349068411111110,  34.021689614444441,0</coordinates>
      </Point>
    </Placemark>
    <Placemark>
      <name>PAEK</name>
      <description>PAEK</description>
      <visibility>1</visibility>
      <Point>
        <extrude>0</extrude>
        <altitudeMode>clampToGround</altitudeMode>
        <coordinates> 174.952078308611110, -41.021762503888887,0</coordinates>
      </Point>
    </Placemark>
    <Placemark>
      <name>PALX</name>
      <description>PALX</description>
      <visibility>1</visibility>
      <Point>
        <extrude>0</extrude>
        <altitudeMode>clampToGround</altitudeMode>
        <coordinates>-116.063785941388890,  31.559116546111113,0</coordinates>
      </Point>
    </Placemark>
    <Placemark>
      <name>PARW</name>
      <description>PARW</description>
      <visibility>1</visibility>
      <Point>
        <extrude>0</extrude>
        <altitudeMode>clampToGround</altitudeMode>
        <coordinates> 175.426938200277760, -41.381546385000000,0</coordinates>
      </Point>
    </Placemark>
    <Placemark>
      <name>PBHR</name>
      <description>PBHR</description>
      <visibility>1</visibility>
      <Point>
        <extrude>0</extrude>
        <altitudeMode>clampToGround</altitudeMode>
        <coordinates>-121.272412713888880,  35.708952728333337,0</coordinates>
      </Point>
    </Placemark>
    <Placemark>
      <name>PBR2</name>
      <description>PBR2</description>
      <visibility>1</visibility>
      <Point>
        <extrude>0</extrude>
        <altitudeMode>clampToGround</altitudeMode>
        <coordinates>  92.712245566388887,  11.637806178888889,0</coordinates>
      </Point>
    </Placemark>
    <Placemark>
      <name>PBRI</name>
      <description>PBRI</description>
      <visibility>1</visibility>
      <Point>
        <extrude>0</extrude>
        <altitudeMode>clampToGround</altitudeMode>
        <coordinates>  92.712136399444447,  11.637779925555556,0</coordinates>
      </Point>
    </Placemark>
    <Placemark>
      <name>PDME</name>
      <description>PDME</description>
      <visibility>1</visibility>
      <Point>
        <extrude>0</extrude>
        <altitudeMode>clampToGround</altitudeMode>
        <coordinates> 165.351321041388870, -20.937879683333332,0</coordinates>
      </Point>
    </Placemark>
    <Placemark>
      <name>PEBO</name>
      <description>PEBO</description>
      <visibility>1</visibility>
      <Point>
        <extrude>0</extrude>
        <altitudeMode>clampToGround</altitudeMode>
        <coordinates> 164.580999756666670, -20.392486752777778,0</coordinates>
      </Point>
    </Placemark>
    <Placemark>
      <name>PHJX</name>
      <description>PHJX</description>
      <visibility>1</visibility>
      <Point>
        <extrude>0</extrude>
        <altitudeMode>clampToGround</altitudeMode>
        <coordinates>-115.550450383888890,  32.490055425277781,0</coordinates>
      </Point>
    </Placemark>
    <Placemark>
      <name>PJZX</name>
      <description>PJZX</description>
      <visibility>1</visibility>
      <Point>
        <extrude>0</extrude>
        <altitudeMode>clampToGround</altitudeMode>
        <coordinates>-115.883730305277780,  32.417006983888889,0</coordinates>
      </Point>
    </Placemark>
    <Placemark>
      <name>PLPX</name>
      <description>PLPX</description>
      <visibility>1</visibility>
      <Point>
        <extrude>0</extrude>
        <altitudeMode>clampToGround</altitudeMode>
        <coordinates>-115.151275717500000,  31.588600401944444,0</coordinates>
      </Point>
    </Placemark>
    <Placemark>
      <name>PLTX</name>
      <description>PLTX</description>
      <visibility>1</visibility>
      <Point>
        <extrude>0</extrude>
        <altitudeMode>clampToGround</altitudeMode>
        <coordinates>-115.430893428055550,  31.816339537222223,0</coordinates>
      </Point>
    </Placemark>
    <Placemark>
      <name>PMBT</name>
      <description>PMBT</description>
      <visibility>1</visibility>
      <Point>
        <extrude>0</extrude>
        <altitudeMode>clampToGround</altitudeMode>
        <coordinates> 164.901369550277790, -21.118625339444446,0</coordinates>
      </Point>
    </Placemark>
    <Placemark>
      <name>PODG</name>
      <description>PODG</description>
      <visibility>1</visibility>
      <Point>
        <extrude>0</extrude>
        <altitudeMode>clampToGround</altitudeMode>
        <coordinates>  79.484908761111114,  43.327513239166670,0</coordinates>
      </Point>
    </Placemark>
    <Placemark>
      <name>PORE</name>
      <description>PORE</description>
      <visibility>1</visibility>
      <Point>
        <extrude>0</extrude>
        <altitudeMode>clampToGround</altitudeMode>
        <coordinates>  13.595046993333334,  45.226017495833332,0</coordinates>
      </Point>
    </Placemark>
    <Placemark>
      <name>POUM</name>
      <description>POUM</description>
      <visibility>1</visibility>
      <Point>
        <extrude>0</extrude>
        <altitudeMode>clampToGround</altitudeMode>
        <coordinates> 164.023775936388920, -20.231650436944442,0</coordinates>
      </Point>
    </Placemark>
    <Placemark>
      <name>POZE</name>
      <description>POZE</description>
      <visibility>1</visibility>
      <Point>
        <extrude>0</extrude>
        <altitudeMode>clampToGround</altitudeMode>
        <coordinates>  17.675464999444447,  45.332823155833339,0</coordinates>
      </Point>
    </Placemark>
    <Placemark>
      <name>PSTX</name>
      <description>PSTX</description>
      <visibility>1</visibility>
      <Point>
        <extrude>0</extrude>
        <altitudeMode>clampToGround</altitudeMode>
        <coordinates>-115.835432546666670,  31.313120569722223,0</coordinates>
      </Point>
    </Placemark>
    <Placemark>
      <name>PTAX</name>
      <description>PTAX</description>
      <visibility>1</visibility>
      <Point>
        <extrude>0</extrude>
        <altitudeMode>clampToGround</altitudeMode>
        <coordinates>-115.456335081666670,  32.377486361666669,0</coordinates>
      </Point>
    </Placemark>
    <Placemark>
      <name>PTEX</name>
      <description>PTEX</description>
      <visibility>1</visibility>
      <Point>
        <extrude>0</extrude>
        <altitudeMode>clampToGround</altitudeMode>
        <coordinates>-116.521235129166670,  32.288451967777775,0</coordinates>
      </Point>
    </Placemark>
    <Placemark>
      <name>PUKE</name>
      <description>PUKE</description>
      <visibility>1</visibility>
      <Point>
        <extrude>0</extrude>
        <altitudeMode>clampToGround</altitudeMode>
        <coordinates> 178.257360530555560, -38.071412875000000,0</coordinates>
      </Point>
    </Placemark>
    <Placemark>
      <name>RDJH</name>
      <description>RDJH</description>
      <visibility>1</visibility>
      <Point>
        <extrude>0</extrude>
        <altitudeMode>clampToGround</altitudeMode>
        <coordinates>-152.805240804722250,  60.590763633333339,0</coordinates>
      </Point>
    </Placemark>
    <Placemark>
      <name>RDWB</name>
      <description>RDWB</description>
      <visibility>1</visibility>
      <Point>
        <extrude>0</extrude>
        <altitudeMode>clampToGround</altitudeMode>
        <coordinates>-152.843635321388890,  60.486806386666665,0</coordinates>
      </Point>
    </Placemark>
    <Placemark>
      <name>RGWI</name>
      <description>RGWI</description>
      <visibility>1</visibility>
      <Point>
        <extrude>0</extrude>
        <altitudeMode>clampToGround</altitudeMode>
        <coordinates> 177.177773723333330, -37.518075517222222,0</coordinates>
      </Point>
    </Placemark>
    <Placemark>
      <name>RIPA</name>
      <description>RIPA</description>
      <visibility>1</visibility>
      <Point>
        <extrude>0</extrude>
        <altitudeMode>clampToGround</altitudeMode>
        <coordinates> 176.492512193333310, -39.165520724722221,0</coordinates>
      </Point>
    </Placemark>
    <Placemark>
      <name>RNO1</name>
      <description>RNO1</description>
      <visibility>1</visibility>
      <Point>
        <extrude>0</extrude>
        <altitudeMode>clampToGround</altitudeMode>
        <coordinates>-119.885816166944450,  39.537907332222218,0</coordinates>
      </Point>
    </Placemark>
    <Placemark>
      <name>RYMD</name>
      <description>RYMD</description>
      <visibility>1</visibility>
      <Point>
        <extrude>0</extrude>
        <altitudeMode>clampToGround</altitudeMode>
        <coordinates>-123.730412484166660,  46.684129694166664,0</coordinates>
      </Point>
    </Placemark>
    <Placemark>
      <name>SA39</name>
      <description>SA39</description>
      <visibility>1</visibility>
      <Point>
        <extrude>0</extrude>
        <altitudeMode>clampToGround</altitudeMode>
        <coordinates> 130.891574211944430, -12.424590655277777,0</coordinates>
      </Point>
    </Placemark>
    <Placemark>
      <name>SA40</name>
      <description>SA40</description>
      <visibility>1</visibility>
      <Point>
        <extrude>0</extrude>
        <altitudeMode>clampToGround</altitudeMode>
        <coordinates> 166.916037207500010,  -0.520616551388889,0</coordinates>
      </Point>
    </Placemark>
    <Placemark>
      <name>SA42</name>
      <description>SA42</description>
      <visibility>1</visibility>
      <Point>
        <extrude>0</extrude>
        <altitudeMode>clampToGround</altitudeMode>
        <coordinates> 147.425294975833310,  -2.060881645277778,0</coordinates>
      </Point>
    </Placemark>
    <Placemark>
      <name>SHE2</name>
      <description>SHE2</description>
      <visibility>1</visibility>
      <Point>
        <extrude>0</extrude>
        <altitudeMode>clampToGround</altitudeMode>
        <coordinates> -64.552011409722226,  46.220691393611112,0</coordinates>
      </Point>
    </Placemark>
    <Placemark>
      <name>SHEE</name>
      <description>SHEE</description>
      <visibility>1</visibility>
      <Point>
        <extrude>0</extrude>
        <altitudeMode>clampToGround</altitudeMode>
        <coordinates>   0.743412579444444,  51.445681895833332,0</coordinates>
      </Point>
    </Placemark>
    <Placemark>
      <name>SIDN</name>
      <description>SIDN</description>
      <visibility>1</visibility>
      <Point>
        <extrude>0</extrude>
        <altitudeMode>clampToGround</altitudeMode>
        <coordinates> -84.171092730833337,  40.310359469999995,0</coordinates>
      </Point>
    </Placemark>
    <Placemark>
      <name>SKMA</name>
      <description>SKMA</description>
      <visibility>1</visibility>
      <Point>
        <extrude>0</extrude>
        <altitudeMode>clampToGround</altitudeMode>
        <coordinates>-121.883960777777790,  45.694244079999997,0</coordinates>
      </Point>
    </Placemark>
    <Placemark>
      <name>SMAI</name>
      <description>SMAI</description>
      <visibility>1</visibility>
      <Point>
        <extrude>0</extrude>
        <altitudeMode>clampToGround</altitudeMode>
        <coordinates>-122.345058831944440,  47.523571590833335,0</coordinates>
      </Point>
    </Placemark>
    <Placemark>
      <name>SMST</name>
      <description>SMST</description>
      <visibility>1</visibility>
      <Point>
        <extrude>0</extrude>
        <altitudeMode>clampToGround</altitudeMode>
        <coordinates> 135.936954306666680,  33.577854898888894,0</coordinates>
      </Point>
    </Placemark>
    <Placemark>
      <name>SPIT</name>
      <description>SPIT</description>
      <visibility>1</visibility>
      <Point>
        <extrude>0</extrude>
        <altitudeMode>clampToGround</altitudeMode>
        <coordinates>-151.426988074166640,  59.608051379166668,0</coordinates>
      </Point>
    </Placemark>
    <Placemark>
      <name>SPKN</name>
      <description>SPKN</description>
      <visibility>1</visibility>
      <Point>
        <extrude>0</extrude>
        <altitudeMode>clampToGround</altitudeMode>
        <coordinates>-117.502579820555550,  47.627663568055553,0</coordinates>
      </Point>
    </Placemark>
    <Placemark>
      <name>SRB1</name>
      <description>SRB1</description>
      <visibility>1</visibility>
      <Point>
        <extrude>0</extrude>
        <altitudeMode>clampToGround</altitudeMode>
        <coordinates>-122.266963665277770,  37.874357758333332,0</coordinates>
      </Point>
    </Placemark>
   </Document>
</kml>
